{"version": 0.6, "generator": "Overpass API 0.7.62.8 e802775f", "osm3s": {"timestamp_osm_base": "2025-08-19T22:47:15Z", "copyright": "The data included in this document is from www.openstreetmap.org. The data is made available under ODbL."}, "elements": [{"type": "node", "id": 3370874695, "lat": -43.5195186, "lon": 172.5793254, "tags": {"addr:city": "Christchurch", "addr:country": "NZ", "addr:housename": "Paint and Sip", "addr:postcode": "8041", "addr:street": "Creyke Road", "amenity": "restaurant", "name": "1977 Happy Kitchen"}}, {"type": "node", "id": 3370913297, "lat": -43.5195302, "lon": 172.579182, "tags": {"addr:city": "Christchurch", "addr:country": "NZ", "addr:housename": "LB and Co", "addr:housenumber": "136", "addr:postcode": "8041", "addr:street": "Ilam Road", "amenity": "cafe", "cuisine": "coffee_shop", "indoor_seating": "yes", "internet_access": "wlan", "name": "LB & Co Espresso", "opening_hours": "Mo-Su 07:00-17:00", "outdoor_seating": "no", "payment:credit_cards": "yes", "payment:debit_cards": "yes", "phone": "+64 3 974 1460", "website": "https://www.lbandco.co.nz/"}}, {"type": "node", "id": 4149989089, "lat": -43.5238095, "lon": 172.5832193, "tags": {"amenity": "cafe", "diet:vegan": "yes", "diet:vegetarian": "yes", "indoor_seating": "yes", "level": "0", "name": "Cafe 1894", "opening_hours": "Mo-Fr 08:00-16:00", "outdoor_seating": "yes", "smoking": "no", "website": "https://ucsa.org.nz/food/ucsa-cafes/", "wheelchair": "yes"}}, {"type": "node", "id": 4863444135, "lat": -43.5235579, "lon": 172.5829014, "tags": {"amenity": "restaurant", "indoor_seating": "yes", "level": "0", "name": "Burgatory", "opening_hours": "Mo-Fr 11:00-15:30", "outdoor_seating": "yes", "smoking": "no", "wheelchair": "yes"}}, {"type": "node", "id": 4863450313, "lat": -43.523594, "lon": 172.5828691, "tags": {"amenity": "restaurant", "indoor_seating": "yes", "level": "0", "name": "Umami Spice", "opening_hours": "Mo-Fr 11:00-15:30", "outdoor_seating": "yes", "smoking": "no", "wheelchair": "yes"}}, {"type": "node", "id": 4863450315, "lat": -43.5236322, "lon": 172.5828297, "tags": {"amenity": "restaurant", "indoor_seating": "yes", "level": "0", "name": "El Kiosco", "opening_hours": "Mo-Fr 11:00-15:30", "outdoor_seating": "yes", "smoking": "no", "wheelchair": "yes"}}, {"type": "node", "id": 5438764153, "lat": -43.5263346, "lon": 172.5790338}, {"type": "node", "id": 5793355993, "lat": -43.5223651, "lon": 172.5831962, "tags": {"amenity": "cafe", "indoor_seating": "yes", "level": "0", "name": "Ancestral", "opening_hours": "Mo-Fr 09:00-16:00", "outdoor_seating": "yes", "payment:credit_cards": "yes", "payment:debit_cards": "yes", "wheelchair": "yes"}}, {"type": "node", "id": 6515711811, "lat": -43.5214483, "lon": 172.5836398, "tags": {"amenity": "cafe", "diet:vegan": "yes", "diet:vegetarian": "yes", "indoor_seating": "yes", "name": "Nuts & Bolts", "opening_hours": "Mo-Fr 09:00-14:30", "outdoor_seating": "no", "payment:credit_cards": "yes", "payment:debit_cards": "yes", "smoking": "no", "website": "https://ucsa.org.nz/food/ucsa-cafes/", "wheelchair": "yes"}}, {"type": "node", "id": 6853547716, "lat": -43.5233417, "lon": 172.5843494, "tags": {"amenity": "cafe", "level": "0", "level:ref": "1", "name": "Therapy Cafe", "payment:credit_cards": "yes", "payment:debit_cards": "yes", "smoking": "no"}}, {"type": "node", "id": 7567675020, "lat": -43.5263315, "lon": 172.5790737}, {"type": "node", "id": 7567675021, "lat": -43.5262997, "lon": 172.579069}, {"type": "node", "id": 7567675022, "lat": -43.5262858, "lon": 172.5792452}, {"type": "node", "id": 7567675023, "lat": -43.5263187, "lon": 172.5792502}, {"type": "node", "id": 7567675024, "lat": -43.5263153, "lon": 172.5792934}, {"type": "node", "id": 7567675025, "lat": -43.5264181, "lon": 172.5793087}, {"type": "node", "id": 7567675026, "lat": -43.5264385, "lon": 172.5790494}, {"type": "node", "id": 9414933105, "lat": -43.5234677, "lon": 172.5826399, "tags": {"amenity": "restaurant", "cuisine": "sushi", "diet:vegan": "no", "diet:vegetarian": "yes", "indoor_seating": "yes", "level": "0", "name": "Oishii", "opening_hours": "Mo-Fr 10:00-16:00", "outdoor_seating": "yes", "wheelchair": "yes"}}, {"type": "node", "id": 9414933106, "lat": -43.523526, "lon": 172.5825956, "tags": {"amenity": "cafe", "cuisine": "pizza;coffee_shop", "indoor_seating": "yes", "level": "0", "name": "Otto", "opening_hours": "Mo-Fr 09:00-19:00", "outdoor_seating": "yes", "payment:credit_cards": "yes", "payment:debit_cards": "yes", "smoking": "no"}}, {"type": "node", "id": 10964806120, "lat": -43.5250992, "lon": 172.5846022, "tags": {"amenity": "cafe", "indoor_seating": "yes", "name": "Mix Cafe", "outdoor_seating": "yes", "payment:credit_cards": "yes", "payment:debit_cards": "yes"}}, {"type": "way", "id": 809361247, "nodes": [5438764153, 7567675020, 7567675021, 7567675022, 7567675023, 7567675024, 7567675025, 7567675026, 5438764153], "tags": {"addr:city": "Christchurch", "addr:country": "NZ", "addr:housenumber": "71", "addr:postcode": "8041", "addr:street": "Ilam Road", "addr:suburb": "Ilam", "amenity": "restaurant", "building": "retail", "building:levels": "1", "cuisine": "indian", "diet:vegan": "yes", "diet:vegetarian": "yes", "email": "info@zykaindiancuisine.co.nz", "indoor_seating": "yes", "name": "Zyka Indian Cuisine", "opening_hours": "Mo-Su 11:30-14:00,17:00-22:00", "outdoor_seating": "no", "payment:credit_cards": "yes", "payment:debit_cards": "yes", "phone": "+64 3 343 4405", "ref:linz:address_id": "183502", "smoking": "no", "takeaway": "yes", "website": "https://www.zykaindiancuisine.co.nz/", "wheelchair": "yes"}}]}